{"version": 0.6, "generator": "Overpass API 0.7.62.1 084b4234", "osm3s": {"timestamp_osm_base": "2024-10-28T17:57:43Z", "copyright": "The data included in this document is from www.openstreetmap.org. The data is made available under ODbL."}, "elements": [{"type": "node", "id": 5644994626, "lat": 40.7226332, "lon": -73.6052635}, {"type": "node", "id": 5644994627, "lat": 40.7228603, "lon": -73.6042747}, {"type": "node", "id": 5644994628, "lat": 40.7224338, "lon": -73.6041042}, {"type": "node", "id": 5644994629, "lat": 40.7224556, "lon": -73.6040096}, {"type": "node", "id": 5644994630, "lat": 40.7223556, "lon": -73.6039696}, {"type": "node", "id": 5644994631, "lat": 40.7223359, "lon": -73.6040557}, {"type": "node", "id": 5644994632, "lat": 40.7220189, "lon": -73.6039289}, {"type": "node", "id": 5644994633, "lat": 40.7217899, "lon": -73.6049263}, {"type": "node", "id": 5644994634, "lat": 40.7218725, "lon": -73.6036277}, {"type": "node", "id": 5644994635, "lat": 40.7212705, "lon": -73.6033893}, {"type": "node", "id": 5644994636, "lat": 40.7208976, "lon": -73.6050287}, {"type": "node", "id": 5644994637, "lat": 40.7214997, "lon": -73.6052671}, {"type": "way", "id": 591292485, "nodes": [5644994626, 5644994627, 5644994628, 5644994629, 5644994630, 5644994631, 5644994632, 5644994633, 5644994626], "tags": {"addr:city": "Uniondale", "addr:housenumber": "55", "addr:postcode": "11553", "addr:state": "NY", "addr:street": "Charles Lindbergh Boulevard Bike Path", "addr:unit": "1", "building": "yes", "nysgissam:nysaddresspointid": "NASS487730;NASS275962"}}, {"type": "way", "id": 591292486, "nodes": [5644994634, 5644994635, 5644994636, 5644994637, 5644994634], "tags": {"addr:housenumber": "51", "addr:street": "Charles Lindbergh Boulevard", "building": "yes"}}]}